[{"SiteName":"PC2_長安社區","LatLng":{"lat":25.073006,"lng":121.699048},"SiteGroup":"ProbeCube","Data":{"temp":25.2,"humi":73.5,"pm25":46},"time":"2017-04-08T16:01:48Z","uniqueKey":"ProbeCube_23139"},{"SiteName":"PC10","LatLng":{"lat":24.14564,"lng":120.725559},"SiteGroup":"ProbeCube","Data":{"temp":25.8,"humi":89.6,"pm25":25},"time":"2017-04-08T16:02:11Z","uniqueKey":"ProbeCube_143057"},{"SiteName":"PC1_prototypeDemo","LatLng":{"lat":25.080261,"lng":121.572041},"SiteGroup":"ProbeCube","Data":{"temp":24.9,"humi":89.6,"pm25":26},"time":"2017-04-08T16:02:13Z","uniqueKey":"ProbeCube_26769"},{"SiteName":"PC5","LatLng":{"lat":24.768058,"lng":120.967176},"SiteGroup":"ProbeCube","Data":{"temp":-3.4,"humi":-1,"pm25":26},"time":"2017-04-08T16:02:06Z","uniqueKey":"ProbeCube_101039"},{"SiteName":"PC12_Purple","LatLng":{"lat":25.02145,"lng":121.302568},"SiteGroup":"ProbeCube","Data":{"temp":27.5,"humi":78.3,"pm25":37},"time":"2017-04-08T16:01:46Z","uniqueKey":"ProbeCube_104435"},{"SiteName":"wahoyu","LatLng":{"lat":24.983739,"lng":121.412278},"SiteGroup":"ProbeCube","Data":{"temp":-3.4,"humi":-1,"pm25":36},"time":"2017-04-08T16:02:10Z","uniqueKey":"ProbeCube_113078"},{"SiteName":"plus0_PC11","LatLng":{"lat":25.151876,"lng":121.77004},"SiteGroup":"ProbeCube","Data":{"temp":-3.4,"humi":-1,"pm25":34},"time":"2017-04-08T16:01:28Z","uniqueKey":"ProbeCube_116521"},{"SiteName":"PC3_山海觀","LatLng":{"lat":25.13769,"lng":121.793042},"SiteGroup":"ProbeCube","Data":{"temp":25.8,"humi":84.2,"pm25":38},"time":"2017-04-08T16:01:53Z","uniqueKey":"ProbeCube_33497"}]